{"version": 0.6, "generator": "Overpass API 0.7.61.5 4133829e", "osm3s": {"timestamp_osm_base": "2024-02-26T22:17:27Z", "copyright": "The data included in this document is from www.openstreetmap.org. The data is made available under ODbL."}, "elements": [{"type": "node", "id": 3013077552, "lat": -23.5794993, "lon": -46.7653602}, {"type": "node", "id": 3013077553, "lat": -23.5796224, "lon": -46.765517}, {"type": "node", "id": 3013077554, "lat": -23.5797135, "lon": -46.7654346}, {"type": "node", "id": 3013077555, "lat": -23.5796568, "lon": -46.7653855}, {"type": "node", "id": 3013077556, "lat": -23.5795785, "lon": -46.7652824}, {"type": "node", "id": 6374687360, "lat": -23.5795424, "lon": -46.765453}, {"type": "way", "id": 297426223, "nodes": [3013077552, 6374687360, 3013077553, 3013077554, 3013077555, 3013077556, 3013077552], "tags": {"addr:city": "S\u00e3o Paulo", "addr:housenumber": "600", "addr:postcode": "05372110", "addr:street": "Rua In\u00e1cio Manuel \u00c1lvares", "addr:suburb": "Jardin Ester", "building": "apartments", "building:levels": "10", "name": "Edificio Mariana Residence"}}]}