{"version": 0.6, "generator": "Overpass API 0.7.61.5 4133829e", "osm3s": {"timestamp_osm_base": "2024-02-26T22:03:15Z", "copyright": "The data included in this document is from www.openstreetmap.org. The data is made available under ODbL."}, "elements": [{"type": "node", "id": 6379864703, "lat": -23.6501172, "lon": -47.2182833}, {"type": "node", "id": 6379864704, "lat": -23.6501503, "lon": -47.218063}, {"type": "node", "id": 6379864705, "lat": -23.6502484, "lon": -47.2180829}, {"type": "node", "id": 6379864706, "lat": -23.6502156, "lon": -47.218311}, {"type": "node", "id": 6379864707, "lat": -23.6501886, "lon": -47.2180714}, {"type": "node", "id": 11528091474, "lat": -23.650976, "lon": -47.2177517}, {"type": "node", "id": 11528091475, "lat": -23.6507515, "lon": -47.217711}, {"type": "node", "id": 11528091476, "lat": -23.6507254, "lon": -47.2178695}, {"type": "node", "id": 11528091477, "lat": -23.6509518, "lon": -47.2179125}, {"type": "node", "id": 11528105016, "lat": -23.6507093, "lon": -47.2179706}, {"type": "node", "id": 11528105017, "lat": -23.6509357, "lon": -47.2180136}, {"type": "way", "id": 681285410, "nodes": [6379864703, 6379864704, 6379864707, 6379864705, 6379864706, 6379864703], "tags": {"addr:city": "Ibi\u00fana", "addr:housenumber": "809", "addr:postcode": "18150-000", "addr:street": "Avenida Doutor Gabriel Monteiro da Silva", "addr:suburb": "Centro", "amenity": "restaurant", "building": "yes", "cuisine": "burger;regional;sandwich;steak_house", "delivery": "yes", "internet_access": "wlan", "name": "Restaurante Quintal", "note": "\u00d3timo restaurante", "opening_hours": "11:00-15:00; 19:00-23:00", "phone": "(15) 3248-1154", "restaurant": "gastronomic", "takeaway": "yes", "wheelchair": "limited"}}, {"type": "way", "id": 1240761122, "nodes": [11528091474, 11528091475, 11528091476, 11528091477, 11528091474], "tags": {"addr:street": "Rua Divaldo Belatto", "building": "yes", "name": "Centro de Reabilita\u00e7\u00e3o Roque Jos\u00e9 de G\u00f3es"}}, {"type": "way", "id": 1240762491, "nodes": [11528091476, 11528105016, 11528105017, 11528091477, 11528091476], "tags": {"addr:street": "Rua Divaldo Belatto", "building": "yes", "name": "Centro Odontol\u00f3gico Ant\u00f4nio Manoel Ferraro", "source": "https://sapl.ibiuna.sp.leg.br/media/sapl/public/materialegislativa/2023/17085/projeto_de_lei_0282.pdf", "source:name": "P.E.T. de Ibi\u00fana, LEI N2 2601. DE 20 DE MAR\u00c7O DE 2023."}}]}