{"version": 0.6, "generator": "Overpass API 0.7.61.5 4133829e", "osm3s": {"timestamp_osm_base": "2024-02-26T22:02:15Z", "copyright": "The data included in this document is from www.openstreetmap.org. The data is made available under ODbL."}, "elements": [{"type": "node", "id": 4377483135, "lat": -23.5922764, "lon": -46.5604713}, {"type": "node", "id": 4377483136, "lat": -23.5925475, "lon": -46.5603272}, {"type": "node", "id": 4377483137, "lat": -23.5925737, "lon": -46.5611371}, {"type": "node", "id": 4377483138, "lat": -23.5927243, "lon": -46.5612397}, {"type": "node", "id": 4377483139, "lat": -23.5930281, "lon": -46.5614144}, {"type": "node", "id": 4377483140, "lat": -23.593077, "lon": -46.5600426}, {"type": "node", "id": 4377483141, "lat": -23.5932259, "lon": -46.5618465}, {"type": "node", "id": 4377483142, "lat": -23.5932867, "lon": -46.5626876}, {"type": "node", "id": 4377483143, "lat": -23.5932911, "lon": -46.5620421}, {"type": "node", "id": 4377483144, "lat": -23.5938393, "lon": -46.562034}, {"type": "node", "id": 4377483145, "lat": -23.5938614, "lon": -46.5618138}, {"type": "way", "id": 195664900, "nodes": [4377483136, 4377483135, 4377483137, 4377483138, 4377483139, 4377483141, 4377483143, 4377483142, 4377483144, 4377483145, 4377483140, 4377483136], "tags": {"addr:city": "S\u00e3o Paulo", "addr:country": "BR", "addr:housenumber": "1501", "addr:postcode": "03227-000", "addr:state": "SP", "addr:street": "Avenida Francisco Falconi", "amenity": "hospital", "contact:fax": "+55 11 2318-2110", "contact:phone": "+55 11 2318-2100;+55 11 2318-2280", "contact:website": "http://www.cidadao.sp.gov.br/servico.php?serv=2709", "name": "Hospital Estadual Vila Alpina", "operator": "Secretaria de Estado da Sa\u00fade"}}]}