{"version": 0.6, "generator": "Overpass API 0.7.61.5 4133829e", "osm3s": {"timestamp_osm_base": "2024-02-26T22:20:28Z", "copyright": "The data included in this document is from www.openstreetmap.org. The data is made available under ODbL."}, "elements": [{"type": "node", "id": 1926578589, "lat": -22.3366685, "lon": -49.066662}, {"type": "node", "id": 1926579908, "lat": -22.3365408, "lon": -49.0668868}, {"type": "node", "id": 1926580003, "lat": -22.3367116, "lon": -49.0668381}, {"type": "node", "id": 1926580844, "lat": -22.3364978, "lon": -49.0667107}, {"type": "node", "id": 4946189779, "lat": -22.3326587, "lon": -49.0661833, "tags": {"addr:housenumber": "22-44", "addr:postcode": "17012-055", "addr:street": "Rua Ara\u00fajo Leite", "internet_access": "wlan", "name": "Barbados Barber Shop Premium", "name:en": "Barbados Barber Shop Premium", "opening_hours": "Mo-Sa 09:00-20:00", "phone": "+55 14 3010-4010", "shop": "hairdresser", "website": "http://barbadosbarbearia.com.br"}}, {"type": "node", "id": 5305058169, "lat": -22.3359921, "lon": -49.0678401}, {"type": "node", "id": 5305058170, "lat": -22.3360168, "lon": -49.0680001}, {"type": "node", "id": 5305058171, "lat": -22.336072, "lon": -49.0680357}, {"type": "node", "id": 5305058172, "lat": -22.3360986, "lon": -49.0679874}, {"type": "node", "id": 5305058173, "lat": -22.3361161, "lon": -49.0679986}, {"type": "node", "id": 5305058174, "lat": -22.3361463, "lon": -49.0679437}, {"type": "node", "id": 5305058175, "lat": -22.3361337, "lon": -49.0679173}, {"type": "node", "id": 5305058176, "lat": -22.3361529, "lon": -49.0678839}, {"type": "node", "id": 5305058177, "lat": -22.3361331, "lon": -49.0678706}, {"type": "node", "id": 5305058178, "lat": -22.3361691, "lon": -49.0678081}, {"type": "node", "id": 5305058179, "lat": -22.33593, "lon": -49.068135, "tags": {"amenity": "taxi"}}, {"type": "node", "id": 6418592021, "lat": -22.3344969, "lon": -49.0677856, "tags": {"addr:city": "Bauru", "addr:housenumber": "13-74", "addr:street": "Rua Machado de Assis", "addr:suburb": "Jardim Nasralla", "contact:facebook": "https://www.facebook.com/littleveganstore", "contact:instagram": "https://www.instagram.com/littleveganstore", "contact:phone": "+55 14 3202-6466", "diet:vegan": "only", "name": "Little Vegan Store", "opening_hours": "Mo-Fr 10:00-19:00; Sa 10:00-16:00", "shop": "health_food"}}, {"type": "node", "id": 6455303119, "lat": -22.3356871, "lon": -49.0643751, "tags": {"amenity": "drinking_water", "man_made": "water_tap"}}, {"type": "node", "id": 10274094509, "lat": -22.3364343, "lon": -49.0640524, "tags": {"amenity": "toilets", "fee": "no", "wheelchair": "limited"}}, {"type": "node", "id": 10276653509, "lat": -22.3323429, "lon": -49.0634014, "tags": {"addr:housenumber": "6-49", "addr:street": "Rua Ant\u00f4nio Garcia", "internet_access": "wlan", "name": "Helo Silveira Universit\u00e1ria", "phone": "(14) 3214-3213;(14) 99814-3213", "shop": "beauty"}}, {"type": "node", "id": 10276653609, "lat": -22.3323546, "lon": -49.0634733, "tags": {"access": "customers", "amenity": "parking", "fee": "no", "name": "Estacionamento da Helo", "parking": "surface"}}, {"type": "node", "id": 10276669710, "lat": -22.331294, "lon": -49.0631764, "tags": {"addr:street": "Rua Maria Jos\u00e9", "amenity": "restaurant", "cuisine": "barbecue;brazilian;grill;sausage", "internet_access": "wlan", "name": "Molhin de Fil\u00e9"}}, {"type": "node", "id": 10276669809, "lat": -22.3316035, "lon": -49.0636645, "tags": {"access": "customers", "amenity": "parking", "fee": "no", "name": "Estacionamento da Drogasil", "parking": "surface"}}, {"type": "node", "id": 10281364311, "lat": -22.3341788, "lon": -49.0624282, "tags": {"addr:street": "Rua Maria Jos\u00e9", "amenity": "clinic", "name": "Policlinica", "name:pt": "Policlinica Daher Miranda"}}, {"type": "node", "id": 10281364509, "lat": -22.3325435, "lon": -49.0638411, "tags": {"addr:housenumber": "4-9", "addr:street": "Rua Ant\u00f4nio Garcia", "name": "XOK Bebidas", "phone": "(14) 3234-3663", "shop": "alcohol"}}, {"type": "node", "id": 10281476309, "lat": -22.3315543, "lon": -49.0635648, "tags": {"addr:street": "Alameda Doutor Oct\u00e1vio Pinheiro Brisola", "amenity": "pharmacy", "brand": "Drogasil", "brand:wikidata": "Q5308185", "healthcare": "pharmacy", "name": "Drogasil", "wheelchair": "yes"}}, {"type": "node", "id": 10537392432, "lat": -22.3333558, "lon": -49.0624039, "tags": {"natural": "tree"}}, {"type": "node", "id": 10537392436, "lat": -22.333332, "lon": -49.0625047, "tags": {"natural": "tree"}}, {"type": "node", "id": 10537392437, "lat": -22.3333775, "lon": -49.0625708, "tags": {"natural": "tree"}}, {"type": "node", "id": 10537404487, "lat": -22.3329745, "lon": -49.0625096, "tags": {"amenity": "bench"}}, {"type": "node", "id": 10537404488, "lat": -22.3327579, "lon": -49.0626399, "tags": {"amenity": "bench"}}, {"type": "node", "id": 10537404489, "lat": -22.3328206, "lon": -49.0625965, "tags": {"amenity": "bench"}}, {"type": "node", "id": 10537404490, "lat": -22.3328863, "lon": -49.0625573, "tags": {"amenity": "bench"}}, {"type": "node", "id": 10537404491, "lat": -22.3329706, "lon": -49.0627024, "tags": {"amenity": "bench"}}, {"type": "node", "id": 10537404492, "lat": -22.3327722, "lon": -49.0627447, "tags": {"amenity": "bench"}}, {"type": "node", "id": 10537404493, "lat": -22.332848, "lon": -49.062732, "tags": {"amenity": "bench"}}, {"type": "node", "id": 10537404494, "lat": -22.3330834, "lon": -49.062681, "tags": {"amenity": "bench"}}, {"type": "node", "id": 10537407198, "lat": -22.3334675, "lon": -49.0625781}, {"type": "node", "id": 10537407199, "lat": -22.333288, "lon": -49.0622983}, {"type": "node", "id": 10537414023, "lat": -22.3330708, "lon": -49.0624453}, {"type": "node", "id": 10537414024, "lat": -22.3331482, "lon": -49.0626659}, {"type": "node", "id": 10537414025, "lat": -22.3333466, "lon": -49.0626169}, {"type": "node", "id": 10537414026, "lat": -22.3333994, "lon": -49.0626026}, {"type": "node", "id": 10537414027, "lat": -22.3332238, "lon": -49.0623473}, {"type": "node", "id": 10537972796, "lat": -22.3322679, "lon": -49.0625106}, {"type": "node", "id": 10537972797, "lat": -22.3323225, "lon": -49.0627972}, {"type": "node", "id": 10537972798, "lat": -22.3326327, "lon": -49.0625777}, {"type": "node", "id": 10537972799, "lat": -22.3324748, "lon": -49.0623297}, {"type": "node", "id": 10968100916, "lat": -22.3316393, "lon": -49.0631483}, {"type": "node", "id": 10968100917, "lat": -22.3314667, "lon": -49.0632022}, {"type": "node", "id": 10968100918, "lat": -22.3315015, "lon": -49.0633326}, {"type": "node", "id": 10968100919, "lat": -22.3315521, "lon": -49.0633169}, {"type": "node", "id": 10968100920, "lat": -22.3315487, "lon": -49.0633044}, {"type": "node", "id": 10968100921, "lat": -22.3315855, "lon": -49.0632929}, {"type": "node", "id": 10968100922, "lat": -22.3315804, "lon": -49.0632738}, {"type": "node", "id": 10968100923, "lat": -22.3316175, "lon": -49.0632622}, {"type": "node", "id": 10968100924, "lat": -22.3316123, "lon": -49.0632427}, {"type": "node", "id": 10968100925, "lat": -22.3316605, "lon": -49.0632277}, {"type": "way", "id": 182301847, "nodes": [1926580003, 1926578589, 1926580844, 1926579908, 1926580003], "tags": {"addr:street": "Rua Gustavo Maciel", "addr:suburb": "Jardim Estoril IV", "amenity": "fuel", "building": "roof", "fuel:octane_87": "yes", "self_service": "no"}}, {"type": "way", "id": 549183904, "nodes": [5305058169, 5305058170, 5305058171, 5305058172, 5305058173, 5305058174, 5305058175, 5305058176, 5305058177, 5305058178, 5305058169], "tags": {"amenity": "police", "building": "yes"}}, {"type": "way", "id": 1130684162, "nodes": [10537414023, 10537414024, 10537414025, 10537414026, 10537392437, 10537392436, 10537414027, 10537414023], "tags": {"amenity": "cafe", "building": "retail", "name": "Copacabana"}}, {"type": "way", "id": 1130685082, "nodes": [10537414027, 10537392436, 10537392437, 10537414026, 10537407198, 10537392432, 10537407199, 10537414027], "tags": {"amenity": "parking"}}, {"type": "way", "id": 1130750404, "nodes": [10537972796, 10537972797, 10537972798, 10537972799, 10537972796], "tags": {"amenity": "fuel", "name": "Ipiranga"}}, {"type": "way", "id": 1181007213, "nodes": [10968100916, 10968100917, 10968100918, 10968100919, 10968100920, 10968100921, 10968100922, 10968100923, 10968100924, 10968100925, 10968100916], "tags": {"amenity": "doctors", "building": "yes", "healthcare": "doctor", "name": "IONG Instituto de Ouvido Nariz e Garganta"}}]}