{"version": 0.6, "generator": "Overpass API 0.7.61.5 4133829e", "osm3s": {"timestamp_osm_base": "2024-02-26T22:08:15Z", "copyright": "The data included in this document is from www.openstreetmap.org. The data is made available under ODbL."}, "elements": [{"type": "node", "id": 2860538485, "lat": -23.7086165, "lon": -46.6088912, "tags": {"addr:city": "Diadema", "addr:housenumber": "1829", "addr:street": "Avenida Jos\u00e9 Bonif\u00e1cio", "building": "industrial", "landuse": "industrial", "name": "HAIAH Pisos Especiais de Borracha Ltda", "website": "https://www.haiah.com.br/novo/"}}, {"type": "node", "id": 3286600232, "lat": -23.7092674, "lon": -46.6106219}, {"type": "node", "id": 3286600233, "lat": -23.7092112, "lon": -46.6104391}, {"type": "node", "id": 3286600234, "lat": -23.7092932, "lon": -46.6104116}, {"type": "node", "id": 3286600235, "lat": -23.709303, "lon": -46.6104813}, {"type": "node", "id": 3286600236, "lat": -23.7093185, "lon": -46.6104783}, {"type": "node", "id": 3286600237, "lat": -23.709351, "lon": -46.6105879}, {"type": "way", "id": 321887580, "nodes": [3286600232, 3286600233, 3286600234, 3286600235, 3286600236, 3286600237, 3286600232], "tags": {"addr:city": "Diadema", "addr:street": "Rua Am\u00e9rico M\u00e1ffia", "addr:suburb": "Jardim Uni\u00e3o", "amenity": "place_of_worship", "building": "yes", "denomination": "pentecostal", "name": "Assembl\u00e9ia de Deus", "religion": "christian"}}]}