{"version": 0.6, "generator": "Overpass API 0.7.61.5 4133829e", "osm3s": {"timestamp_osm_base": "2024-02-26T22:20:28Z", "copyright": "The data included in this document is from www.openstreetmap.org. The data is made available under ODbL."}, "elements": [{"type": "node", "id": 8433465161, "lat": -21.2144932, "lon": -47.5994178}, {"type": "node", "id": 8433465162, "lat": -21.2144234, "lon": -47.5993342}, {"type": "node", "id": 8433465163, "lat": -21.2149661, "lon": -47.5988385}, {"type": "node", "id": 8433465164, "lat": -21.2153664, "lon": -47.5992939}, {"type": "node", "id": 8433465165, "lat": -21.2149204, "lon": -47.5997492}, {"type": "node", "id": 8433465166, "lat": -21.2147175, "lon": -47.5995489}, {"type": "node", "id": 8433465167, "lat": -21.2146349, "lon": -47.5995914}, {"type": "node", "id": 8439629654, "lat": -21.2133699, "lon": -47.6001161}, {"type": "node", "id": 8439629655, "lat": -21.2133562, "lon": -47.5993364}, {"type": "node", "id": 8439629656, "lat": -21.2132942, "lon": -47.5990408}, {"type": "node", "id": 8439629657, "lat": -21.2138832, "lon": -47.5988487}, {"type": "node", "id": 8439629658, "lat": -21.214021, "lon": -47.5988154}, {"type": "node", "id": 8439629659, "lat": -21.2142173, "lon": -47.5993438}, {"type": "way", "id": 908250919, "nodes": [8433465161, 8433465162, 8433465163, 8433465164, 8433465165, 8433465166, 8433465167, 8433465161], "tags": {"addr:housenumber": "189", "addr:postcode": "14150-000", "addr:street": "Rua dos Estudantes", "addr:suburb": "Centro", "amenity": "school", "contact:phone": "+55 16 3987 3699", "email": "e023991A@educacao.sp.gov.br", "name": "Escola Estadual Deputado Jos\u00e9 Costa", "operator": "Secretaria da Educa\u00e7\u00e3o do Estado de S\u00e3o Paulo", "operator:type": "government", "phone": "+55 16 3987 3699", "ref": "INEP-35023991", "source": "CADMEC 2017;INEP"}}, {"type": "way", "id": 908942289, "nodes": [8439629654, 8439629655, 8439629656, 8439629657, 8439629658, 8439629659, 8439629654], "tags": {"addr:housenumber": "600", "addr:postcode": "14150-000", "addr:street": "Rua S\u00e3o Pedro", "addr:suburb": "Centro", "amenity": "school", "contact:phone": "+55 16 3987 1184", "name": "Escola Municipal de Ensino Fundamental Professora Dalzira Barros Martins", "phone": "+55 16 3987 8369", "source": "CADMEC 2017;INEP"}}]}