{"version": 0.6, "generator": "Overpass API 0.7.61.5 4133829e", "osm3s": {"timestamp_osm_base": "2024-02-19T19:53:14Z", "copyright": "The data included in this document is from www.openstreetmap.org. The data is made available under ODbL."}, "elements": [{"type": "node", "id": 5615805408, "lat": -23.6480955, "lon": -46.7481579}, {"type": "node", "id": 5615805409, "lat": -23.6487294, "lon": -46.7477743}, {"type": "node", "id": 5615805410, "lat": -23.6494621, "lon": -46.7492811}, {"type": "node", "id": 5615805411, "lat": -23.6487122, "lon": -46.7496841}, {"type": "node", "id": 8149401994, "lat": -23.6486813, "lon": -46.7500921, "tags": {"addr:city": "S\u00e3o Paulo", "addr:housenumber": "1750", "addr:street": "Estrada de Itapecerica", "bus": "yes", "description": "Ref.: Rua Teresa Mouco De Oliveira/ Rua Baldomero Carqueja", "gtfs_id": "450011847", "highway": "bus_stop", "network": "SPTrans", "network:wikidata": "Q7392689", "network:wikipedia": "pt:S\u00e3o Paulo Transporte", "public_transport": "platform", "route_ref": "6036-10;6037-10;6038-10;6039-10;6041-10;6042-10;6044-10;6045-10;6046-10;677Y-10;746V-10;8078-10"}}, {"type": "node", "id": 10116190917, "lat": -23.6494795, "lon": -46.7477485, "tags": {"addr:housenumber": "200", "addr:postcode": "05846410", "addr:street": "Rua Santa Archelia", "amenity": "school", "name": "Col\u00e9gio S\u00e3o Luiz de Gonzaga - Unidade 3", "website": "https://colegiosaoluizunidade3.com.br/"}}, {"type": "node", "id": 10947328067, "lat": -23.6489665, "lon": -46.7499024, "tags": {"addr:city": "S\u00e3o Paulo", "addr:housenumber": "1725", "addr:street": "Estrada de Itapecerica"}}, {"type": "way", "id": 318404108, "nodes": [5615805411, 5615805408, 5615805409, 5615805410, 5615805411], "tags": {"addr:city": "S\u00e3o Paulo", "addr:housenumber": "1661", "addr:postcode": "05835-005", "addr:street": "Estrada de Itapecerica", "addr:suburb": "Vila Maracan\u00e3", "amenity": "hospital", "email": "comunicacaohmcl@prefeitura.sp.gov.br", "emergency": "yes", "healthcare": "hospital", "loc_name": "Hospital Municipal Campo Limpo", "name": "Hospital Municipal Doutor Fernando Mauro Pires da Rocha", "operator:ref:vatin": "BR46392130000380", "phone": "+55 11 3394 7460", "ref:CNES": "2786680", "ref:vatin": "BR46392148003054", "website": "https://www.prefeitura.sp.gov.br/cidade/secretarias/saude/autarquia_hospitalar_municipal/unidades_da_ahm/index.php?p=17056", "wheelchair": "yes"}}]}