{"version": 0.6, "generator": "Overpass API 0.7.61.5 4133829e", "osm3s": {"timestamp_osm_base": "2024-02-26T22:14:26Z", "copyright": "The data included in this document is from www.openstreetmap.org. The data is made available under ODbL."}, "elements": [{"type": "node", "id": 3443811672, "lat": -23.4971785, "lon": -46.4400842, "tags": {"amenity": "hospital", "emergency": "yes", "name": "Hospital Tide Setubal"}}, {"type": "node", "id": 3443811673, "lat": -23.4973047, "lon": -46.4413233}, {"type": "node", "id": 3443815524, "lat": -23.4967358, "lon": -46.4414038, "tags": {"amenity": "police"}}, {"type": "node", "id": 3443815525, "lat": -23.4971293, "lon": -46.4408566, "tags": {"amenity": "clinic", "emergency": "no", "name": "Assist\u00eancia M\u00e9dica Ambulatorial", "short_name": "AMA"}}, {"type": "node", "id": 5263841736, "lat": -23.4993843, "lon": -46.4405229, "tags": {"addr:housenumber": "780", "addr:street": "Avenida Nordestina", "amenity": "library", "name": "Biblioteca Raimundo de Menezer", "phone": "11 2297-4053", "website": "https://www.prefeitura.sp.gov.br/cidade/secretarias/cultura/bibliotecas/bibliotecas_bairro/bibliotecas_m_z/raimundodemenezes"}}, {"type": "node", "id": 5890931871, "lat": -23.4951186, "lon": -46.4422229}, {"type": "node", "id": 5890950707, "lat": -23.4948406, "lon": -46.4420817}, {"type": "node", "id": 5890965292, "lat": -23.496915, "lon": -46.4413171}, {"type": "node", "id": 8953543270, "lat": -23.499256, "lon": -46.4394276}, {"type": "node", "id": 8953543271, "lat": -23.4995057, "lon": -46.4394034}, {"type": "node", "id": 8953543272, "lat": -23.4995149, "lon": -46.4396348}, {"type": "node", "id": 8953543273, "lat": -23.4992917, "lon": -46.4396502}, {"type": "node", "id": 9037836517, "lat": -23.496494, "lon": -46.4414426, "tags": {"addr:city": "S\u00e3o Paulo", "addr:housenumber": "305-A", "addr:street": "Rua Am\u00e9rico Gomes da Costa", "addr:suburb": "S\u00e3o Miguel Paulista", "amenity": "police", "name": "CPP S\u00e3o Miguel Paulista"}}, {"type": "node", "id": 10586734742, "lat": -23.494423, "lon": -46.4424775}, {"type": "node", "id": 10586734743, "lat": -23.4945958, "lon": -46.4426971}, {"type": "node", "id": 10586734744, "lat": -23.4945589, "lon": -46.4427299}, {"type": "node", "id": 10586734748, "lat": -23.4943867, "lon": -46.4425117}, {"type": "node", "id": 10586734753, "lat": -23.4944452, "lon": -46.4425858, "tags": {"addr:city": "S\u00e3o Paulo", "addr:housenumber": "105", "addr:postcode": "08010-100", "addr:street": "Rua Daniel Bernardo"}}, {"type": "node", "id": 10586805760, "lat": -23.4961029, "lon": -46.4413626}, {"type": "node", "id": 10586805761, "lat": -23.4963067, "lon": -46.4408454}, {"type": "node", "id": 10586805762, "lat": -23.4966815, "lon": -46.4410173}, {"type": "node", "id": 10586805763, "lat": -23.4964741, "lon": -46.4415411}, {"type": "node", "id": 10586805764, "lat": -23.4965291, "lon": -46.4409474}, {"type": "node", "id": 10586805765, "lat": -23.4963343, "lon": -46.4414739}, {"type": "node", "id": 10586805766, "lat": -23.4966892, "lon": -46.4416449}, {"type": "node", "id": 10586805767, "lat": -23.4969107, "lon": -46.4411213}, {"type": "node", "id": 10586805768, "lat": -23.4967801, "lon": -46.4416887}, {"type": "node", "id": 10586805769, "lat": -23.4968429, "lon": -46.4412817}, {"type": "node", "id": 10586805770, "lat": -23.4971582, "lon": -46.4414253}, {"type": "node", "id": 10586805771, "lat": -23.4973029, "lon": -46.4413}, {"type": "node", "id": 10695764899, "lat": -23.4986792, "lon": -46.4407442}, {"type": "node", "id": 10695764900, "lat": -23.4986343, "lon": -46.4406633}, {"type": "node", "id": 10695764901, "lat": -23.4988706, "lon": -46.4404996}, {"type": "node", "id": 10695764902, "lat": -23.4989184, "lon": -46.440589}, {"type": "way", "id": 967791407, "nodes": [8953543273, 8953543272, 8953543271, 8953543270, 8953543273], "tags": {"amenity": "parking"}}, {"type": "way", "id": 1135705532, "nodes": [5890950707, 10586734742, 10586734748, 10586734753, 10586734744, 10586734743, 5890931871, 5890950707], "tags": {"addr:city": "S\u00e3o Paulo", "addr:housenumber": "105", "addr:postcode": "08010-100", "addr:street": "Rua Daniel Bernardo", "addr:suburb": "S\u00e3o Miguel Paulista", "amenity": "school", "barrier": "wall", "name": "EMEFM Darcy Ribeiro", "short_name": "Escola Municipal de Ensino Fundamental e M\u00e9dio Darcy Ribeiro"}}, {"type": "way", "id": 1135714074, "nodes": [10586805760, 10586805761, 10586805764, 10586805762, 10586805763, 10586805765, 10586805760], "tags": {"addr:city": "S\u00e3o Paulo", "addr:housenumber": "305", "addr:street": "Rua Am\u00e9rico Gomes da Costa", "amenity": "police", "name": "22\u00ba Distrito Policial", "operator": "Pol\u00edcia Civil do Estado de S\u00e3o Paulo", "operator:wikidata": "Q10350993"}}, {"type": "way", "id": 1135714075, "nodes": [3443811673, 10586805771, 10586805767]}, {"type": "way", "id": 1135714076, "nodes": [10586805769, 10586805766, 10586805768, 10586805770, 10586805769], "tags": {"addr:city": "S\u00e3o Paulo", "addr:street": "Avenida Nordestina", "amenity": "police", "barrier": "wall", "name": "29\u00baBPM/M 2\u00aa Cia PM", "operator": "Pol\u00edcia Militar do Estado de S\u00e3o Paulo", "operator:short": "PMESP", "operator:wikidata": "Q10351025"}}, {"type": "way", "id": 1135714077, "nodes": [10586805767, 10586805769, 5890965292, 10586805770]}, {"type": "way", "id": 1135714078, "nodes": [10586805770, 3443811673], "tags": {"barrier": "fence"}}, {"type": "way", "id": 1149753289, "nodes": [10695764899, 10695764900, 10695764901, 10695764902, 10695764899], "tags": {"amenity": "fuel", "building": "roof", "height": "5", "layer": "1"}}, {"type": "relation", "id": 15398952, "members": [{"type": "way", "ref": 1135714078, "role": "outer"}, {"type": "way", "ref": 1135714075, "role": "outer"}, {"type": "way", "ref": 1135714077, "role": "outer"}], "tags": {"addr:city": "S\u00e3o Paulo", "addr:street": "Avenida Nordestina", "amenity": "fire_station", "barrier": "wall", "name": "Posto de Bombeiros S\u00e3o Miguel", "type": "multipolygon"}}]}