{"version": 0.6, "generator": "Overpass API 0.7.61.5 4133829e", "osm3s": {"timestamp_osm_base": "2024-02-26T22:03:15Z", "copyright": "The data included in this document is from www.openstreetmap.org. The data is made available under ODbL."}, "elements": [{"type": "node", "id": 1113784470, "lat": -23.6569407, "lon": -46.6535594}, {"type": "node", "id": 2274167481, "lat": -23.65719, "lon": -46.6532948}, {"type": "node", "id": 2537960002, "lat": -23.6564599, "lon": -46.6533564}, {"type": "node", "id": 2537960004, "lat": -23.6567551, "lon": -46.6537328}, {"type": "node", "id": 2587755735, "lat": -23.6569091, "lon": -46.6529366}, {"type": "node", "id": 2587755745, "lat": -23.657235, "lon": -46.6539347}, {"type": "node", "id": 2587755749, "lat": -23.657435, "lon": -46.6530659}, {"type": "node", "id": 2587755754, "lat": -23.6577225, "lon": -46.6534537}, {"type": "node", "id": 4744269736, "lat": -23.6570257, "lon": -46.6540405}, {"type": "node", "id": 4744269737, "lat": -23.6570773, "lon": -46.6539869}, {"type": "node", "id": 4744269738, "lat": -23.6570551, "lon": -46.653952}, {"type": "node", "id": 4744269739, "lat": -23.6571166, "lon": -46.6538823}, {"type": "node", "id": 4744269740, "lat": -23.657033, "lon": -46.653767}, {"type": "node", "id": 4744269741, "lat": -23.6569864, "lon": -46.6538179}, {"type": "node", "id": 4744269742, "lat": -23.6569151, "lon": -46.6537187}, {"type": "node", "id": 4744269743, "lat": -23.6568365, "lon": -46.6538072}, {"type": "node", "id": 5108551476, "lat": -23.6575427, "lon": -46.6537416, "tags": {"addr:city": "S\u00e3o Paulo", "addr:housenumber": "2800", "addr:postcode": "04378-500", "addr:street": "Avenida Santa Catarina", "amenity": "taxi", "bench": "yes", "capacity": "3", "name": "Ponto de T\u00e1xi Santa Marina", "phone": "+55 11 5677-7480", "ref": "1162", "shelter": "yes"}}, {"type": "node", "id": 5126010497, "lat": -23.6554703, "lon": -46.6554232, "tags": {"amenity": "place_of_worship", "building": "church", "name": "Igreja Universal do Reino de Deus", "religion": "christian"}}, {"type": "node", "id": 5577209327, "lat": -23.6568896, "lon": -46.6541291, "tags": {"amenity": "pharmacy", "brand": "Drogaria S\u00e3o Paulo", "brand:wikidata": "Q5308184", "brand:wikipedia": "en:Grupo DPSP", "healthcare": "pharmacy", "name": "Drogaria S\u00e3o Paulo"}}, {"type": "node", "id": 6896783673, "lat": -23.6566368, "lon": -46.6544831, "tags": {"amenity": "place_of_worship", "denomination": "baptist", "name": "Igreja Batista Shalom", "religion": "christian"}}, {"type": "node", "id": 10608956878, "lat": -23.6576482, "lon": -46.6535269, "tags": {"addr:city": "S\u00e3o Paulo", "addr:housenumber": "2831", "addr:postcode": "04378-500", "addr:street": "Avenida Santa Catarina"}}, {"type": "node", "id": 10608956879, "lat": -23.6575338, "lon": -46.6537497}, {"type": "node", "id": 10608956880, "lat": -23.6577095, "lon": -46.6539782}, {"type": "node", "id": 10608956881, "lat": -23.6578125, "lon": -46.653961}, {"type": "node", "id": 10608956882, "lat": -23.6576086, "lon": -46.6536818}, {"type": "node", "id": 10608956885, "lat": -23.6572574, "lon": -46.6543413}, {"type": "node", "id": 10608956886, "lat": -23.6571546, "lon": -46.6542047}, {"type": "node", "id": 10608956889, "lat": -23.6572033, "lon": -46.6542694}, {"type": "node", "id": 10608956890, "lat": -23.6572751, "lon": -46.6542039}, {"type": "node", "id": 10608956891, "lat": -23.6572255, "lon": -46.6541411}, {"type": "node", "id": 10608956892, "lat": -23.657329, "lon": -46.6542772}, {"type": "way", "id": 218135037, "nodes": [2587755745, 10608956878, 2587755754, 2587755749, 2274167481, 2587755735, 2537960002, 2537960004, 1113784470, 2587755745], "tags": {"addr:city": "S\u00e3o Paulo", "addr:housenumber": "2785", "addr:postcode": "04378-500", "addr:street": "Avenida Santa Catarina", "addr:suburb": "Vila Santa Catarina", "amenity": "hospital", "healthcare": "hospital", "name": "Hospital Municipal Vila Santa Catarina Dr. Gilson de C. Marques de Carvalho", "old_name": "Hospital Santa Marina", "operator": "Hospital Israelita Albert Einstein", "operator:ref:vatin": "BR46392130000380", "phone": "+55 11 2151 2063", "ref:CNES": "7711980", "short_name": "Hospital Municipal Vila Santa Catarina"}}, {"type": "way", "id": 481495642, "nodes": [4744269736, 4744269737, 4744269738, 4744269739, 4744269740, 4744269741, 4744269742, 4744269743, 4744269736], "tags": {"amenity": "fuel", "brand": "Ipiranga", "brand:wikidata": "Q2081136", "brand:wikipedia": "pt:Ipiranga (empresa)", "building": "roof", "fuel:diesel": "yes", "fuel:ethanol": "yes", "fuel:octane_87": "yes", "name": "Ipiranga", "self_service": "yes"}}, {"type": "way", "id": 1138143074, "nodes": [10608956879, 10608956880, 10608956881, 10608956882, 5108551476, 10608956879], "tags": {"addr:city": "S\u00e3o Paulo", "addr:housenumber": "2806", "addr:postcode": "04378-500", "addr:street": "Avenida Santa Catarina", "amenity": "parking", "parking": "surface"}}, {"type": "way", "id": 1138143077, "nodes": [10608956889, 10608956890, 10608956891, 10608956886, 10608956889], "tags": {"addr:city": "S\u00e3o Paulo", "addr:street": "Avenida Santa Catarina", "name": "Flor da Catarina P\u00e3es e Doces", "shop": "bakery"}}, {"type": "way", "id": 1138143078, "nodes": [10608956890, 10608956892, 10608956885, 10608956889, 10608956890], "tags": {"addr:city": "S\u00e3o Paulo", "addr:street": "Rua Cidade de Bagd\u00e1", "name": "Nova Bagd\u00e1 Carnes e Rotisserie", "shop": "butcher"}}]}