{"version": 0.6, "generator": "Overpass API 0.7.61.5 4133829e", "osm3s": {"timestamp_osm_base": "2024-02-26T22:04:15Z", "copyright": "The data included in this document is from www.openstreetmap.org. The data is made available under ODbL."}, "elements": [{"type": "node", "id": 4381110103, "lat": -20.7926964, "lon": -49.4154674}, {"type": "node", "id": 4381110104, "lat": -20.7927854, "lon": -49.4152609}, {"type": "node", "id": 4381110105, "lat": -20.792809, "lon": -49.415335}, {"type": "node", "id": 4381110106, "lat": -20.7928327, "lon": -49.4152853}, {"type": "node", "id": 4381110107, "lat": -20.7930136, "lon": -49.4157544}, {"type": "node", "id": 4381110108, "lat": -20.7930549, "lon": -49.4156619}, {"type": "node", "id": 4381110109, "lat": -20.7931878, "lon": -49.4158536}, {"type": "node", "id": 4381110110, "lat": -20.7932267, "lon": -49.4157611}, {"type": "node", "id": 4381110111, "lat": -20.7933809, "lon": -49.4158375}, {"type": "node", "id": 4381110112, "lat": -20.7934269, "lon": -49.4156633}, {"type": "node", "id": 4381110113, "lat": -20.7934404, "lon": -49.4157114}, {"type": "node", "id": 9725075089, "lat": -20.789047, "lon": -49.4137225}, {"type": "node", "id": 9725075090, "lat": -20.7897516, "lon": -49.4127917}, {"type": "node", "id": 9725075091, "lat": -20.7904537, "lon": -49.4133791}, {"type": "node", "id": 9725075092, "lat": -20.7902055, "lon": -49.4139987}, {"type": "node", "id": 9725075093, "lat": -20.7894357, "lon": -49.4152996}, {"type": "way", "id": 440391334, "nodes": [4381110105, 4381110106, 4381110104, 4381110103, 4381110108, 4381110107, 4381110109, 4381110110, 4381110111, 4381110113, 4381110112, 4381110105], "tags": {"addr:city": "S\u00e3o Jos\u00e9 do Rio Preto", "addr:housenumber": "1320", "addr:postcode": "15041-218", "addr:state": "SP", "addr:street": "Avenida Fortunato Ernesto Vetorasso", "addr:suburb": "Jardim Vetorasso", "building": "yes", "email": "vendas@silvaesilvamatconst.com.br", "name": "Silva e Silva Materiais para Constru\u00e7\u00e3o", "phone": "+55 17 3219 9800", "shop": "hardware", "website": "http://www.silvaesilvamatconst.com.br/", "wheelchair": "yes"}}, {"type": "way", "id": 1058351331, "nodes": [9725075093, 9725075092, 9725075091, 9725075090, 9725075089, 9725075093], "tags": {"addr:housenumber": "125", "addr:street": "Avenida Nametallah Yossef Tarraf", "amenity": "hospital", "healthcare": "hospital", "name": "Hospital Municipal Regi\u00e3o Norte", "official_name": "Hospital Municipal Domingo Marcolino Braile", "operator": "Funfarme"}}]}