{"version": 0.6, "generator": "Overpass API 0.7.61.5 4133829e", "osm3s": {"timestamp_osm_base": "2024-02-26T22:06:10Z", "copyright": "The data included in this document is from www.openstreetmap.org. The data is made available under ODbL."}, "elements": [{"type": "node", "id": 1799909064, "lat": -23.679642, "lon": -46.674482}, {"type": "node", "id": 1799909065, "lat": -23.6800154, "lon": -46.6753591}, {"type": "node", "id": 1799909069, "lat": -23.6791163, "lon": -46.6758875}, {"type": "node", "id": 1799909072, "lat": -23.6796837, "lon": -46.6756032}, {"type": "node", "id": 1799909077, "lat": -23.6787159, "lon": -46.6749434}, {"type": "node", "id": 1799909079, "lat": -23.6796592, "lon": -46.6755388}, {"type": "way", "id": 168773766, "nodes": [1799909077, 1799909069, 1799909072, 1799909079, 1799909065, 1799909064, 1799909077], "tags": {"addr:city": "S\u00e3o Paulo", "addr:housenumber": "507", "addr:street": "Rua S\u00e3o Canuto", "addr:suburb": "Vila Campo Grande", "building": "retail", "name": "Max Atacadista", "opening_hours": "Mo-Sa 07:00-22:00; Su,PH 08:00-20:00", "payment:cash": "yes", "payment:coins": "yes", "payment:credit_cards": "yes", "payment:debit_cards": "yes", "payment:notes": "yes", "payment:voucher_meal": "yes", "phone": "+55 11 2394 8742", "shop": "wholesale", "wholesale": "supermarket"}}]}