{"version": 0.6, "generator": "Overpass API 0.7.61.5 4133829e", "osm3s": {"timestamp_osm_base": "2024-02-26T22:06:10Z", "copyright": "The data included in this document is from www.openstreetmap.org. The data is made available under ODbL."}, "elements": [{"type": "node", "id": 975788509, "lat": -23.6796863, "lon": -46.6766903}, {"type": "node", "id": 1280918687, "lat": -23.6811489, "lon": -46.6775556}, {"type": "node", "id": 1280918729, "lat": -23.6805151, "lon": -46.6749578}, {"type": "node", "id": 1280918751, "lat": -23.6814121, "lon": -46.677449}, {"type": "node", "id": 1280918780, "lat": -23.6816461, "lon": -46.6773534}, {"type": "node", "id": 1280918829, "lat": -23.6815111, "lon": -46.6774029}, {"type": "node", "id": 1280918839, "lat": -23.6824258, "lon": -46.6760258}, {"type": "node", "id": 1280918842, "lat": -23.6824846, "lon": -46.6760587}, {"type": "node", "id": 1280918846, "lat": -23.6820276, "lon": -46.6775617}, {"type": "node", "id": 5617700725, "lat": -23.6829172, "lon": -46.678572, "tags": {"amenity": "social_facility", "name": "Sal da Terra", "operator": "Igreja Luterana", "social_facility": "outreach"}}, {"type": "node", "id": 5617700726, "lat": -23.6828926, "lon": -46.6785023, "tags": {"addr:city": "S\u00e3o Paulo", "addr:country": "BR", "addr:housenumber": "774", "addr:postcode": "04455-000", "addr:street": "Rua Orlando Pinto Ribeiro", "amenity": "place_of_worship", "denomination": "lutheran", "name": "Capela de Cristo", "network:wikidata": "Q3586161", "religion": "christian", "service_times": "Su 10:30", "website": "https://www.luteranos.com.br/paroquia/vila-campo-grande-diadema"}}, {"type": "way", "id": 112752680, "nodes": [1280918842, 1280918839, 1280918729, 975788509, 1280918687, 1280918751, 1280918829, 1280918780, 1280918846, 1280918842], "tags": {"amenity": "hospital", "emergency": "yes", "healthcare": "hospital", "healthcare:speciality": "general", "name": "Hospital Geral de Pedreira"}}]}