{"version": 0.6, "generator": "Overpass API 0.7.61.5 4133829e", "osm3s": {"timestamp_osm_base": "2024-02-19T19:49:15Z", "copyright": "The data included in this document is from www.openstreetmap.org. The data is made available under ODbL."}, "elements": [{"type": "node", "id": 4719500872, "lat": -23.951145, "lon": -46.3220886}, {"type": "node", "id": 4719500873, "lat": -23.951156, "lon": -46.3219184}, {"type": "node", "id": 4719500874, "lat": -23.9513497, "lon": -46.3219335}, {"type": "node", "id": 4719500875, "lat": -23.9513535, "lon": -46.3218742}, {"type": "node", "id": 4719500876, "lat": -23.9512248, "lon": -46.3218642}, {"type": "node", "id": 4719500877, "lat": -23.951234, "lon": -46.3217226}, {"type": "node", "id": 4719500878, "lat": -23.951617, "lon": -46.3217524}, {"type": "node", "id": 4719500879, "lat": -23.9516083, "lon": -46.3218876}, {"type": "node", "id": 4719500880, "lat": -23.951497, "lon": -46.3218789}, {"type": "node", "id": 4719500881, "lat": -23.9514922, "lon": -46.3219525}, {"type": "node", "id": 4719500882, "lat": -23.9516905, "lon": -46.3219679}, {"type": "node", "id": 4719500883, "lat": -23.9516799, "lon": -46.3221302}, {"type": "node", "id": 4782061561, "lat": -23.9501302, "lon": -46.3240399}, {"type": "node", "id": 4782061562, "lat": -23.9501426, "lon": -46.3238964}, {"type": "node", "id": 4782061563, "lat": -23.9502419, "lon": -46.3239067}, {"type": "node", "id": 4782061564, "lat": -23.9502295, "lon": -46.3240502}, {"type": "node", "id": 8864446530, "lat": -23.949231, "lon": -46.3231834}, {"type": "node", "id": 8864446531, "lat": -23.9492414, "lon": -46.3230461}, {"type": "node", "id": 8864446532, "lat": -23.949534, "lon": -46.3230726}, {"type": "node", "id": 8864446533, "lat": -23.9495326, "lon": -46.3231105}, {"type": "node", "id": 8864446534, "lat": -23.9495515, "lon": -46.3231184}, {"type": "node", "id": 8864446535, "lat": -23.9495595, "lon": -46.3231341}, {"type": "node", "id": 8864446536, "lat": -23.9495577, "lon": -46.3231577}, {"type": "node", "id": 8864446537, "lat": -23.9495488, "lon": -46.3231705}, {"type": "node", "id": 8864446538, "lat": -23.9495299, "lon": -46.3231784}, {"type": "node", "id": 8864446539, "lat": -23.9495275, "lon": -46.3232104}, {"type": "node", "id": 9208361817, "lat": -23.9534902, "lon": -46.3225342, "tags": {"addr:city": "Santos", "addr:housenumber": "452", "addr:street": "Avenida Conselheiro N\u00e9bias", "alt_name": "Centro de Refer\u00eancia Especializado de Assist\u00eancia Social Zona Leste - Regi\u00e3o central hist\u00f3rica", "amenity": "social_facility", "name": "CREAS Zona Leste - Regi\u00e3o central hist\u00f3rica", "social_facility": "outreach", "social_facility:for": "underprivileged;abused;victim"}}, {"type": "way", "id": 478737760, "nodes": [4719500872, 4719500873, 4719500874, 4719500875, 4719500876, 4719500877, 4719500878, 4719500879, 4719500880, 4719500881, 4719500882, 4719500883, 4719500872], "tags": {"addr:city": "Santos", "addr:housenumber": "401", "addr:street": "Avenida Conselheiro N\u00e9bias", "addr:suburb": "Encruzinhada", "amenity": "hospital", "building": "hospital", "building:levels": "10", "healthcare": "hospital", "name": "Hospital de Cl\u00ednicas e Maternidade"}}, {"type": "way", "id": 485437965, "nodes": [4782061561, 4782061562, 4782061563, 4782061564, 4782061561], "tags": {"addr:city": "Santos", "addr:housenumber": "1", "addr:postcode": "11015-440", "addr:street": "Pra\u00e7a Padre Champagnat", "addr:suburb": "Encruzinhada", "amenity": "community_centre", "building": "yes", "name": "Sociedade de Melhoramentos do Bairro da Encruzilhada", "phone": "+55 13 3272-2531"}}, {"type": "way", "id": 958036556, "nodes": [8864446539, 8864446530, 8864446531, 8864446532, 8864446533, 8864446534, 8864446535, 8864446536, 8864446537, 8864446538, 8864446539], "tags": {"addr:city": "Santos", "addr:housenumber": "13", "addr:postcode": "11015-440", "addr:street": "Rua Almeida de Moraes", "addr:suburb": "Vila Matias", "amenity": "social_centre", "building": "yes", "club": "freemasonry", "name": "Loja Ma\u00e7\u00f4nica Estrela de Santos", "phone": "+55 (13) 3222-7068", "wheelchair": "no"}}]}