{"version": 0.6, "generator": "Overpass API 0.7.61.5 4133829e", "osm3s": {"timestamp_osm_base": "2024-02-26T22:10:13Z", "copyright": "The data included in this document is from www.openstreetmap.org. The data is made available under ODbL."}, "elements": [{"type": "node", "id": 5800095250, "lat": -23.5393586, "lon": -46.2195067}, {"type": "node", "id": 5800095251, "lat": -23.5394693, "lon": -46.2194718}, {"type": "node", "id": 5800095252, "lat": -23.5394029, "lon": -46.2192385}, {"type": "node", "id": 5800095553, "lat": -23.5393611, "lon": -46.2192573}, {"type": "node", "id": 5800095554, "lat": -23.5393021, "lon": -46.219276}, {"type": "node", "id": 6504916810, "lat": -23.5387565, "lon": -46.21756}, {"type": "node", "id": 6504916811, "lat": -23.5391696, "lon": -46.2182279}, {"type": "node", "id": 6504916812, "lat": -23.5392483, "lon": -46.2181984}, {"type": "node", "id": 6504916813, "lat": -23.5394721, "lon": -46.2179033}, {"type": "node", "id": 6504916814, "lat": -23.5392557, "lon": -46.2171818}, {"type": "node", "id": 6504916815, "lat": -23.5389778, "lon": -46.2178899}, {"type": "node", "id": 6504916816, "lat": -23.5390884, "lon": -46.2180562}, {"type": "node", "id": 7279560475, "lat": -23.5406663, "lon": -46.2190883}, {"type": "node", "id": 7279560476, "lat": -23.5406516, "lon": -46.2190378}, {"type": "node", "id": 7279560477, "lat": -23.5405902, "lon": -46.2190591}, {"type": "node", "id": 7279560478, "lat": -23.5406048, "lon": -46.2191096}, {"type": "node", "id": 7279582794, "lat": -23.5405785, "lon": -46.218539}, {"type": "node", "id": 7279582795, "lat": -23.5408834, "lon": -46.2184424}, {"type": "node", "id": 7279582796, "lat": -23.540946, "lon": -46.2186778}, {"type": "node", "id": 7279582797, "lat": -23.5406411, "lon": -46.2187743}, {"type": "way", "id": 612805184, "nodes": [5800095250, 5800095251, 5800095252, 5800095553, 5800095554, 5800095250], "tags": {"addr:city": "Mogi das Cruzes", "addr:housenumber": "255", "addr:street": "Rua Padre \u00c1lvaro Quinonez Zu\u00f1iga", "addr:suburb": "Braz Cubas", "amenity": "place_of_worship", "building": "church", "denomination": "baptist", "name": "Igreja Batista IBBC", "phone": "+55 11 4722 8481", "religion": "christian", "website": "https://ibbc.org.br/"}}, {"type": "way", "id": 692863297, "nodes": [6504916810, 6504916815, 6504916816, 6504916811, 6504916812, 6504916813, 6504916814, 6504916810], "tags": {"access": "yes", "addr:city": "Mogi das Cruzes", "addr:postcode": "08740-320", "addr:street": "Rua Guttermann", "addr:suburb": "Br\u00e1s Cubas", "amenity": "marketplace", "bicycle": "yes", "building": "roof", "fish": "yes", "flower": "yes", "food": "yes", "foot": "yes", "herb": "yes", "horse": "no", "lit": "no", "loc_name": "P\u00e1tio da Feira de Braz Cubas", "meat": "no", "motor_vehicle": "no", "name": "Pra\u00e7a Maria Luiza da Rocha Cavenaghi", "opening_hours": "Fr 07:00-12:30; Su 06:00-13:30", "source": "https://www.mogidascruzes.sp.gov.br/noticia/prefeitura-entrega-cobertura-do-patio-da-feira-de-braz-cubas", "spices": "yes", "surface": "asphalt", "vegetable": "yes"}}, {"type": "way", "id": 779561231, "nodes": [7279560478, 7279560477, 7279560476, 7279560475, 7279560478], "tags": {"amenity": "toilets", "building": "yes"}}, {"type": "way", "id": 779561237, "nodes": [7279582797, 7279582794, 7279582795, 7279582796, 7279582797], "tags": {"building": "yes"}}]}