{"version": 0.6, "generator": "Overpass API 0.7.61.5 4133829e", "osm3s": {"timestamp_osm_base": "2024-02-26T22:08:15Z", "copyright": "The data included in this document is from www.openstreetmap.org. The data is made available under ODbL."}, "elements": [{"type": "node", "id": 3286600232, "lat": -23.7092674, "lon": -46.6106219}, {"type": "node", "id": 3286600233, "lat": -23.7092112, "lon": -46.6104391}, {"type": "node", "id": 3286600234, "lat": -23.7092932, "lon": -46.6104116}, {"type": "node", "id": 3286600235, "lat": -23.709303, "lon": -46.6104813}, {"type": "node", "id": 3286600236, "lat": -23.7093185, "lon": -46.6104783}, {"type": "node", "id": 3286600237, "lat": -23.709351, "lon": -46.6105879}, {"type": "node", "id": 4159692233, "lat": -23.707222, "lon": -46.6096214}, {"type": "node", "id": 4159692234, "lat": -23.7069421, "lon": -46.6079048}, {"type": "node", "id": 4159692235, "lat": -23.7059155, "lon": -46.6078779}, {"type": "node", "id": 4159692236, "lat": -23.7061562, "lon": -46.6097877}, {"type": "node", "id": 4159692237, "lat": -23.7065737, "lon": -46.6099151}, {"type": "node", "id": 4159692238, "lat": -23.7067702, "lon": -46.6098252}, {"type": "way", "id": 321887580, "nodes": [3286600232, 3286600233, 3286600234, 3286600235, 3286600236, 3286600237, 3286600232], "tags": {"addr:city": "Diadema", "addr:street": "Rua Am\u00e9rico M\u00e1ffia", "addr:suburb": "Jardim Uni\u00e3o", "amenity": "place_of_worship", "building": "yes", "denomination": "pentecostal", "name": "Assembl\u00e9ia de Deus", "religion": "christian"}}, {"type": "way", "id": 414831650, "nodes": [4159692233, 4159692234, 4159692235, 4159692236, 4159692237, 4159692238, 4159692233], "tags": {"addr:city": "Diadema", "addr:country": "BR", "addr:housenumber": "1641", "addr:postcode": "09980-150", "addr:street": "Avenida Jos\u00e9 Bonif\u00e1cio", "addr:suburb": "Serraria", "amenity": "hospital", "emergency": "yes", "healthcare": "hospital", "name": "Hospital Estadual de Diadema", "operator": "SPDM \u2013 Associa\u00e7\u00e3o Paulista para o Desenvolvimento da Medicina", "operator:ref:vatin": "BR46374500000194", "phone": "+55 11 3583 1400", "ref:CNES": "2084163"}}]}